,City,Lat,Lng,Max Temp,Humidity,Cloudiness,Wind Speed,Country,Weather Description
0,Dingle,10.9995,122.6711,77.02,90,100,2.24,PH,moderate rain
1,Ribeira Grande,38.5167,-28.7,65.68,80,52,7.11,PT,broken clouds
2,Rikitea,-23.1203,-134.9692,75.7,79,100,11.05,PF,overcast clouds
3,Carnarvon,-24.8667,113.6333,68.4,40,55,10.67,AU,broken clouds
4,Bend,44.0582,-121.3153,68.09,33,20,8.01,US,few clouds
5,Ovalle,-30.5983,-71.2003,69.6,54,74,4.99,CL,broken clouds
6,Katsuura,35.1333,140.3,72.19,85,100,12.01,JP,overcast clouds
7,Atuona,-9.8,-139.0333,79.18,72,17,14.85,PF,few clouds
8,Noyabrsk,63.1994,75.4507,39.97,66,87,3.51,RU,overcast clouds
9,Albany,42.6001,-73.9662,89.38,47,37,12.19,US,scattered clouds
10,Bluff,-46.6,168.3333,46.35,77,15,6.15,NZ,few clouds
11,Hilo,19.7297,-155.09,81.25,79,16,5.99,US,few clouds
12,Arman,59.7,150.1667,41.81,91,100,8.03,RU,overcast clouds
13,Bredasdorp,-34.5322,20.0403,52.29,59,0,3.74,ZA,clear sky
14,Obregon,11.9566,-85.9636,94.98,38,67,10.58,NI,broken clouds
15,Paamiut,61.994,-49.6678,38.89,95,100,11.54,GL,light rain
16,Maniitsoq,65.4167,-52.9,39.29,93,100,16.13,GL,light rain
17,Fairbanks,64.8378,-147.7164,72.01,38,36,1.01,US,scattered clouds
18,Piacabucu,-10.4056,-36.4344,76.87,80,6,10.02,BR,clear sky
19,Acapulco,16.8634,-99.8901,89.44,56,96,9.62,MX,overcast clouds
20,Leshukonskoye,64.8989,45.7622,54.34,81,43,7.38,RU,scattered clouds
21,Barrow,71.2906,-156.7887,33.82,80,90,11.5,US,overcast clouds
22,Chokurdakh,70.6333,147.9167,57.47,64,33,7.34,RU,scattered clouds
23,Salalah,17.0151,54.0924,82.29,84,68,8.21,OM,broken clouds
24,Jamestown,42.097,-79.2353,85.3,44,1,8.05,US,clear sky
25,Upernavik,72.7868,-56.1549,38.05,87,75,3.8,GL,broken clouds
26,Lasa,46.6166,10.7002,56.62,94,100,5.61,IT,overcast clouds
27,Ushuaia,-54.8,-68.3,26.58,94,23,3.56,AR,few clouds
28,Waris Aliganj,25.0167,85.6333,90.86,44,36,7.72,IN,scattered clouds
29,Tuktoyaktuk,69.4541,-133.0374,35.04,81,51,11.52,CA,broken clouds
30,East London,-33.0153,27.9116,58.84,73,3,10.07,ZA,clear sky
31,Port Alfred,-33.5906,26.891,59.0,76,0,14.25,ZA,clear sky
32,Hermanus,-34.4187,19.2345,58.89,52,0,7.16,ZA,clear sky
33,Kaitangata,-46.2817,169.8464,42.93,84,94,2.55,NZ,overcast clouds
34,Beringovskiy,63.05,179.3167,43.65,74,100,1.16,RU,overcast clouds
35,Punta Arenas,-53.15,-70.9167,39.11,86,71,7.67,CL,broken clouds
36,Chuy,-33.6971,-53.4616,60.17,97,100,8.34,UY,heavy intensity rain
37,Vardo,70.3705,31.1107,40.98,81,40,6.91,NO,scattered clouds
38,Hithadhoo,-0.6,73.0833,81.95,76,100,12.24,MV,overcast clouds
39,Khatanga,71.9667,102.5,33.12,87,96,10.16,RU,overcast clouds
40,Peshkovo,47.0187,39.3885,61.88,90,98,10.51,RU,light rain
41,Mataura,-46.1927,168.8643,41.99,95,82,1.7,NZ,broken clouds
42,Lohardaga,23.4333,84.6833,80.01,60,32,4.25,IN,scattered clouds
43,Bandarbeyla,9.4942,50.8122,79.27,86,36,24.34,SO,scattered clouds
44,La Palma,33.8464,-118.0467,94.03,61,75,5.99,US,broken clouds
45,Dikson,73.5069,80.5464,29.98,98,99,11.05,RU,light snow
46,Torbay,47.6666,-52.7314,57.27,96,90,9.22,CA,fog
47,Wilkinsburg,40.4417,-79.882,88.93,43,40,1.01,US,scattered clouds
48,Dessau,51.8386,12.2456,68.85,93,100,4.72,DE,overcast clouds
49,Gazanjyk,39.2446,55.5154,75.87,45,0,13.24,TM,clear sky
50,Plastun,44.7561,136.2939,53.08,96,100,2.59,RU,overcast clouds
51,Aripuana,-9.1667,-60.6333,86.95,51,81,2.46,BR,broken clouds
52,Saint-Philippe,-21.3585,55.7679,73.47,82,14,1.39,RE,few clouds
53,Tlapehuala,18.2167,-100.5167,100.06,30,90,2.44,MX,overcast clouds
54,Hobart,-42.8794,147.3294,43.27,82,75,5.41,AU,broken clouds
55,Chernyshkovskiy,48.4219,42.2308,60.96,91,95,8.79,RU,overcast clouds
56,Saskatoon,52.1168,-106.6345,76.98,36,75,4.0,CA,broken clouds
57,Waren,53.5167,12.6833,61.02,66,88,7.99,DE,overcast clouds
58,Shumskiy,54.8318,99.1328,44.94,92,100,11.54,RU,light rain
59,Nanortalik,60.1432,-45.2371,41.83,78,100,6.4,GL,overcast clouds
60,Merauke,-8.4667,140.3333,75.51,88,79,8.01,ID,broken clouds
61,Castro,-24.7911,-50.0119,61.21,84,4,3.71,BR,clear sky
62,Tasiilaq,65.6145,-37.6368,41.16,98,100,7.81,GL,light rain
63,Vaini,-21.2,-175.2,74.59,57,67,12.93,TO,broken clouds
64,Busselton,-33.65,115.3333,56.08,84,52,12.93,AU,broken clouds
65,Champaign,40.1334,-88.2001,89.06,37,75,5.01,US,broken clouds
66,Amberley,39.2048,-84.428,87.46,45,20,3.0,US,few clouds
67,Ponta Delgada,37.7333,-25.6667,66.92,77,20,10.36,PT,few clouds
68,Lagoa,39.05,-27.9833,63.61,77,22,3.24,PT,few clouds
69,Miyako,39.6367,141.9525,64.62,74,100,5.41,JP,overcast clouds
70,Hirara,24.8,125.2833,80.8,87,100,19.8,JP,overcast clouds
71,Cabo San Lucas,22.8909,-109.9124,102.81,49,0,10.33,MX,clear sky
72,Nouadhibou,20.931,-17.0347,69.78,68,92,18.41,MR,overcast clouds
73,Valparaiso,-33.0393,-71.6273,60.44,69,0,12.68,CL,clear sky
74,Xining,36.6167,101.7667,57.58,35,100,2.46,CN,overcast clouds
75,Hambantota,6.1241,81.1185,78.42,85,49,14.52,LK,scattered clouds
76,Esperance,-33.8667,121.9,55.92,61,75,15.48,AU,broken clouds
77,Samarai,-10.6167,150.6667,78.49,86,99,15.48,PG,overcast clouds
78,Sitka,57.0531,-135.33,52.16,79,98,3.38,US,light rain
79,Sangar,63.9242,127.4739,49.86,70,100,12.08,RU,overcast clouds
80,Ponta Do Sol,32.6667,-17.1,67.01,73,37,4.54,PT,scattered clouds
81,Neiafu,-18.65,-173.9833,75.54,68,99,17.02,TO,overcast clouds
82,Chulym,55.0997,80.9572,52.39,81,96,11.23,RU,overcast clouds
83,Ust-Maya,60.4167,134.5333,63.52,63,15,2.17,RU,few clouds
84,Oranjemund,-28.55,16.4333,68.99,29,27,11.99,NA,scattered clouds
85,Hasaki,35.7333,140.8333,66.6,79,100,7.92,JP,light rain
86,Barinas,8.6226,-70.2075,80.31,83,91,7.99,VE,overcast clouds
87,Bacungan,9.9106,118.7022,80.55,85,100,3.87,PH,overcast clouds
88,Ndjole,-0.1783,10.7649,75.58,96,77,1.97,GA,light rain
89,Ketchikan,55.3422,-131.6461,47.26,94,100,6.04,US,moderate rain
90,Faanui,-16.4833,-151.75,80.53,74,74,7.43,PF,broken clouds
91,Avarua,-21.2078,-159.775,75.25,78,40,8.05,CK,scattered clouds
92,Qaanaaq,77.484,-69.3632,38.82,83,100,5.14,GL,overcast clouds
93,Constitucion,-35.3333,-72.4167,54.86,63,100,8.46,CL,overcast clouds
94,Clyde River,70.4692,-68.5914,32.23,93,90,16.11,CA,light snow
95,Cherskiy,68.75,161.3,64.83,35,94,22.12,RU,overcast clouds
96,Aksarka,66.5606,67.7975,41.83,58,88,6.44,RU,overcast clouds
97,New Norfolk,-42.7826,147.0587,42.93,75,100,4.0,AU,overcast clouds
98,Kapaa,22.0752,-159.319,85.98,70,42,4.0,US,scattered clouds
99,Pevek,69.7008,170.3133,43.11,84,96,9.33,RU,overcast clouds
100,Thompson,55.7435,-97.8558,67.5,58,100,4.7,CA,overcast clouds
101,Bac Lieu,9.285,105.7244,82.17,81,100,10.69,VN,overcast clouds
102,Lebu,-37.6167,-73.65,51.75,72,100,12.44,CL,overcast clouds
103,Semey,50.4111,80.2275,48.18,54,6,6.13,KZ,clear sky
104,Pacific Grove,36.6177,-121.9166,84.02,72,13,3.0,US,few clouds
105,Yellowknife,62.456,-114.3525,61.29,88,75,1.01,CA,light rain
106,Sibolga,1.7427,98.7792,73.35,68,34,3.8,ID,scattered clouds
107,Sumbe,-11.2061,13.8437,74.46,90,100,7.11,AO,overcast clouds
108,Superior,46.7208,-92.1041,96.44,63,1,13.8,US,clear sky
109,Rishikesh,30.1167,78.3167,81.75,41,4,5.19,IN,clear sky
110,Atar,20.5169,-13.0499,93.92,18,61,15.9,MR,broken clouds
111,Kavaratti,10.5669,72.642,82.33,76,100,14.03,IN,overcast clouds
112,Severo-Kurilsk,50.6789,156.125,42.26,95,100,15.23,RU,light rain
113,Victoria,22.2855,114.1577,81.32,80,68,1.01,HK,broken clouds
114,Namibe,-15.1961,12.1522,71.82,68,61,1.88,AO,broken clouds
115,Avera,33.194,-82.5271,81.91,55,95,5.95,US,overcast clouds
116,Bocana De Paiwas,12.7857,-85.1227,89.69,48,71,8.01,NI,broken clouds
117,Kruisfontein,-34.0033,24.7314,52.36,35,0,6.58,ZA,clear sky
118,Saldanha,-33.0117,17.9442,60.91,40,6,10.92,ZA,clear sky
119,Fereydun Kenar,36.6864,52.5225,72.19,74,0,4.16,IR,clear sky
120,Danilovka,50.3557,44.1168,54.23,95,100,6.08,RU,overcast clouds
121,Rocha,-34.4833,-54.3333,55.36,90,100,10.0,UY,overcast clouds
122,Northam,51.0333,-4.2167,59.14,95,100,5.53,GB,overcast clouds
123,Senno,59.5336,33.9167,57.11,64,10,4.23,RU,clear sky
124,Saint-Pierre,-21.3393,55.4781,73.56,89,75,3.44,RE,light rain
125,Bathsheba,13.2167,-59.5167,79.95,78,95,18.61,BB,overcast clouds
126,Nikolsk,53.7189,46.0712,53.51,96,88,6.69,RU,overcast clouds
127,Los Llanos De Aridane,28.6585,-17.9182,64.15,79,90,15.41,ES,overcast clouds
128,Grand Gaube,-20.0064,57.6608,70.38,85,15,1.01,MU,few clouds
129,Biltine,14.5333,20.9167,92.97,13,74,9.33,TD,broken clouds
130,Iqaluit,63.7506,-68.5145,34.7,80,85,5.99,CA,overcast clouds
131,Puerto Ayora,-0.7393,-90.3518,74.55,87,99,7.0,EC,overcast clouds
132,Kahului,20.8947,-156.47,84.97,74,6,11.01,US,clear sky
133,Raudeberg,61.9875,5.1352,57.87,94,100,1.32,NO,overcast clouds
134,Butaritari,3.0707,172.7902,82.38,70,38,5.84,KI,scattered clouds
135,Fortuna Foothills,32.6578,-114.4119,108.55,8,4,1.99,US,clear sky
136,Ankeny,41.7297,-93.6058,93.74,40,1,12.66,US,clear sky
137,Rawson,-43.3002,-65.1023,49.91,48,0,16.89,AR,clear sky
138,Kambove,-10.8764,26.5969,63.0,54,95,5.21,CD,overcast clouds
139,Hualmay,-11.0964,-77.6139,68.2,72,11,10.8,PE,few clouds
140,Kapuskasing,49.4169,-82.4331,66.97,51,61,4.32,CA,broken clouds
141,Pisco,-13.7,-76.2167,66.02,80,18,5.64,PE,few clouds
142,Haines Junction,60.7522,-137.5108,54.5,59,93,4.21,CA,light rain
143,Tautira,-17.7333,-149.15,84.22,77,79,13.15,PF,broken clouds
144,Sola,-13.8833,167.55,79.5,72,82,9.86,VU,broken clouds
145,Bethel,41.3712,-73.414,93.02,49,98,1.01,US,overcast clouds
146,Cape Town,-33.9258,18.4232,59.11,41,3,5.99,ZA,clear sky
147,Paita,-5.0892,-81.1144,71.6,74,97,18.25,PE,overcast clouds
148,Washougal,45.5826,-122.3534,68.31,73,75,5.01,US,broken clouds
149,Newport,51.5877,-2.9984,62.92,84,100,5.23,GB,light rain
150,Caravelas,-17.7125,-39.2481,73.15,89,2,6.17,BR,clear sky
151,Nikolskoye,59.7035,30.7861,60.69,66,50,3.56,RU,scattered clouds
152,Pemangkat,1.1667,108.9667,80.19,81,73,6.71,ID,broken clouds
153,Hamamatsu,34.7,137.7333,66.02,87,100,1.99,JP,moderate rain
154,Khushab,32.2967,72.3525,90.14,33,3,1.5,PK,clear sky
155,Zhigansk,66.7697,123.3711,45.75,63,99,3.96,RU,overcast clouds
156,Sobradinho,-12.8333,-39.1,70.56,88,12,4.34,BR,few clouds
157,Melong,5.1218,9.9614,65.62,98,73,2.46,CM,light rain
158,Tiksi,71.6872,128.8694,36.7,82,94,7.38,RU,overcast clouds
159,Lompoc,34.6391,-120.4579,82.02,75,75,5.01,US,broken clouds
160,San Quintin,30.4833,-115.95,68.31,63,17,11.12,MX,few clouds
161,Te Anau,-45.4167,167.7167,39.54,91,49,1.32,NZ,scattered clouds
162,Itarema,-2.9248,-39.9167,78.91,75,2,12.08,BR,clear sky
163,Georgetown,5.4112,100.3354,78.89,89,20,1.01,MY,few clouds
164,Port Macquarie,-31.4333,152.9167,43.38,79,2,4.9,AU,clear sky
165,Port Elizabeth,-33.918,25.5701,57.88,79,0,9.78,ZA,clear sky
166,Sistranda,63.7256,8.834,55.36,91,100,4.07,NO,overcast clouds
167,Maragogi,-9.0122,-35.2225,76.06,87,10,10.49,BR,clear sky
168,Comodoro Rivadavia,-45.8667,-67.5,49.26,46,19,16.96,AR,few clouds
169,Norman Wells,65.282,-126.8329,50.04,66,75,10.36,CA,light rain
170,Abu Samrah,35.3029,37.1841,68.56,48,0,8.39,SY,clear sky
171,Shelburne,44.0787,-80.2041,84.56,69,100,16.51,CA,overcast clouds
172,Airai,-8.9266,125.4092,59.58,94,90,3.47,TL,overcast clouds
173,Laguna,38.421,-121.4238,96.66,35,1,1.99,US,clear sky
174,Bubaque,11.2833,-15.8333,79.79,83,66,15.08,GW,broken clouds
175,Shimoda,34.6667,138.95,70.16,91,95,8.97,JP,light rain
176,Timizart,36.8,4.2667,67.3,89,82,6.67,DZ,broken clouds
177,Caibarien,22.5206,-79.4669,81.97,77,67,16.69,CU,broken clouds
178,Ngerengere,-6.75,38.1167,68.11,92,57,2.66,TZ,light rain
179,Puerto Berrio,6.4916,-74.4033,93.09,45,83,2.55,CO,broken clouds
180,Qaqortoq,60.7167,-46.0333,52.3,74,100,9.95,GL,overcast clouds
181,Skagen,57.7209,10.5839,59.27,70,100,3.85,DK,overcast clouds
182,Stamford,41.0534,-73.5387,95.0,46,1,4.0,US,clear sky
183,Kamenka,51.3223,42.7678,53.22,98,100,7.99,RU,overcast clouds
184,Shingu,33.7333,135.9833,64.26,97,100,4.65,JP,overcast clouds
185,Cherat,33.8233,71.8915,79.21,41,1,2.84,PK,clear sky
186,Padang,-0.9492,100.3543,75.6,80,7,4.63,ID,clear sky
187,Eloi Mendes,-21.61,-45.5653,66.81,58,26,3.31,BR,scattered clouds
188,Hobyo,5.3505,48.5268,78.24,81,53,20.62,SO,broken clouds
189,Hami,42.8,93.45,71.8,40,71,15.88,CN,light rain
190,Filadelfia,39.9523,-75.1638,93.51,41,79,5.99,US,broken clouds
191,Aklavik,68.2191,-135.0107,41.72,81,90,12.66,CA,overcast clouds
192,Adre,13.4667,22.2,87.57,18,88,7.36,TD,overcast clouds
193,Richards Bay,-28.783,32.0377,61.77,80,90,3.69,ZA,light rain
194,Bud,39.447,-86.1758,85.8,53,35,7.45,US,scattered clouds
195,Isangel,-19.55,169.2667,76.93,80,85,11.21,VU,overcast clouds
196,Emba,48.8264,58.1442,59.56,52,57,14.29,KZ,broken clouds
197,Lakatoro,-16.0999,167.4164,78.03,74,55,5.06,VU,broken clouds
198,Inuvik,68.3499,-133.7218,41.76,70,90,10.6,CA,overcast clouds
199,Vrede,-27.4257,29.1659,37.69,68,0,3.78,ZA,clear sky
200,Vestmannaeyjar,63.4427,-20.2734,47.5,86,97,25.26,IS,overcast clouds
201,Hanzhong,33.0728,107.0303,66.78,74,66,1.12,CN,broken clouds
202,Kieta,-6.2167,155.6333,80.24,84,6,4.97,PG,clear sky
203,Sinnamary,5.3833,-52.95,79.56,82,33,10.29,GF,scattered clouds
204,Egvekinot,66.3167,-179.1667,36.36,74,18,2.13,RU,few clouds
205,Estelle,29.8458,-90.1067,77.0,81,90,11.5,US,overcast clouds
206,Mbumi,-7.9058,39.2105,70.39,89,17,3.22,TZ,few clouds
207,Bambous Virieux,-20.3428,57.7575,70.21,78,7,5.35,MU,clear sky
208,Port Lincoln,-34.7333,135.8667,56.91,93,55,13.06,AU,broken clouds
209,Anadyr,64.75,177.4833,37.71,94,100,2.35,RU,overcast clouds
210,Kodiak,57.79,-152.4072,53.33,58,37,6.33,US,scattered clouds
211,Mar Del Plata,-38.0023,-57.5575,59.02,53,0,4.0,AR,clear sky
212,Broome,42.2506,-75.833,88.18,41,1,8.01,US,clear sky
213,Berbera,10.4396,45.0143,91.36,56,0,2.77,SO,clear sky
214,Kalmunai,7.4167,81.8167,78.42,82,77,3.96,LK,broken clouds
215,Antofagasta,-23.65,-70.4,62.51,78,7,7.96,CL,clear sky
216,Boa Vista,2.8197,-60.6733,84.18,74,20,8.05,BR,few clouds
217,Turukhansk,65.8167,87.9833,31.78,91,100,20.98,RU,light snow
218,Guerrero Negro,27.9769,-114.0611,74.14,49,21,16.93,MX,few clouds
219,Moree,-29.4667,149.85,43.83,70,10,6.55,AU,clear sky
220,Nemuro,43.3236,145.575,53.19,85,57,15.75,JP,broken clouds
221,Klaksvik,62.2266,-6.589,50.92,93,91,13.4,FO,overcast clouds
222,Annapolis,38.9785,-76.4922,94.01,49,8,1.99,US,clear sky
223,Uporovo,56.3109,66.2693,51.73,72,7,7.09,RU,clear sky
224,Roma,43.2128,-75.4557,91.26,45,1,10.36,US,clear sky
225,Provideniya,64.3833,-173.3,37.49,83,98,8.95,RU,overcast clouds
226,Bengkulu,-3.8004,102.2655,75.16,92,20,3.94,ID,few clouds
227,Aleksandrovka,46.8383,32.7612,60.01,68,46,5.93,UA,scattered clouds
228,Porto Novo,6.4965,2.6036,77.7,85,100,5.01,BJ,overcast clouds
229,Saint George,37.1041,-113.5841,106.27,10,0,5.01,US,clear sky
230,Kavali,14.9167,79.9833,81.43,73,85,6.11,IN,overcast clouds
231,Yarada,17.65,83.2667,85.46,76,55,13.11,IN,broken clouds
232,Sechura,-5.5569,-80.8222,75.47,63,99,16.22,PE,overcast clouds
233,Linxia,35.6003,103.2064,58.28,30,96,3.22,CN,overcast clouds
234,Key Largo,25.0865,-80.4473,86.02,72,90,12.68,US,overcast clouds
235,Silopi,37.2497,42.4694,74.68,22,0,0.4,TR,clear sky
236,Lalmohan,22.3384,90.7419,84.78,82,100,13.13,BD,overcast clouds
237,Tura,25.5198,90.2201,71.6,97,43,5.35,IN,scattered clouds
238,San Carlos De Bariloche,-41.1456,-71.3082,37.08,75,60,6.2,AR,broken clouds
239,Howick,-29.4779,30.2306,45.03,72,0,4.16,ZA,clear sky
240,Half Moon Bay,37.4636,-122.4286,91.62,54,75,8.86,US,broken clouds
241,Cidreira,-30.1811,-50.2056,72.18,73,100,5.88,BR,overcast clouds
242,Sandwick,60.0,-1.25,48.02,93,90,8.16,GB,fog
243,Prince Rupert,54.3161,-130.3201,48.99,86,100,8.25,CA,light rain
244,Koprivnica,46.1628,16.8275,67.77,91,94,5.08,HR,overcast clouds
245,Ust-Nera,64.5667,143.2,69.48,39,8,5.97,RU,clear sky
246,Peniche,39.3558,-9.3811,64.74,86,4,16.96,PT,clear sky
247,Aswan,24.0934,32.907,83.7,19,7,14.2,EG,clear sky
248,Verkhnevilyuysk,63.4453,120.3167,48.27,81,100,1.34,RU,overcast clouds
249,Dovolnoye,54.4958,79.6671,49.06,88,38,10.22,RU,scattered clouds
250,Sao Joao Da Barra,-21.6403,-41.0511,73.51,85,0,9.71,BR,clear sky
251,Sao Filipe,14.8961,-24.4956,76.87,67,91,13.0,CV,overcast clouds
252,Iranshahr,27.2025,60.6848,92.59,42,0,5.06,IR,clear sky
253,Harstad,68.799,16.5293,51.58,79,20,4.34,NO,few clouds
254,Abapo,-18.8333,-63.4667,80.62,44,61,1.66,BO,broken clouds
255,Jumla,29.2747,82.1838,55.51,84,81,2.82,NP,broken clouds
256,San Jose,37.3394,-121.895,91.56,34,75,1.99,US,broken clouds
257,Mehamn,71.0357,27.8492,40.86,77,67,14.38,NO,broken clouds
258,Yerbogachen,61.2767,108.0108,42.6,67,60,1.63,RU,broken clouds
259,Zhuhai,22.2769,113.5678,81.05,89,20,3.04,CN,few clouds
260,Whitehorse,60.7161,-135.0538,60.31,29,100,8.01,CA,light rain
261,Carora,10.1755,-70.0827,85.91,52,100,14.83,VE,overcast clouds
262,Huancavelica,-12.7667,-74.9833,47.98,51,99,5.35,PE,overcast clouds
263,Kodinsk,58.6881,99.1844,40.33,63,100,3.47,RU,overcast clouds
264,Warwick,41.7001,-71.4162,90.82,58,75,14.97,US,broken clouds
265,Los Mochis,25.7667,-108.9667,99.07,29,0,15.97,MX,clear sky
266,Nichinan,31.6,131.3667,63.84,91,100,4.88,JP,light rain
267,Vila Velha,-20.3297,-40.2925,75.94,86,11,1.01,BR,few clouds
268,Muros,42.7762,-9.0603,65.84,71,0,8.43,ES,clear sky
269,Baykit,61.67,96.37,41.76,90,90,8.37,RU,overcast clouds
270,Nyurba,63.2842,118.3319,49.57,76,100,2.89,RU,overcast clouds
271,Kankakee,41.15,-87.8667,90.95,42,40,12.66,US,scattered clouds
272,Korla,41.7597,86.1469,75.72,26,43,8.68,CN,scattered clouds
273,Souillac,-20.5167,57.5167,70.36,81,3,5.12,MU,clear sky
274,Talnakh,69.4865,88.3972,29.1,98,96,3.33,RU,light snow
275,Sisimiut,66.9395,-53.6735,41.02,87,100,5.32,GL,overcast clouds
276,Magog,45.2668,-72.1491,80.4,57,99,17.27,CA,overcast clouds
277,Rafai,4.95,23.9167,69.26,99,100,1.45,CF,light rain
278,Port Hedland,-20.3167,118.5667,68.05,52,17,8.05,AU,few clouds
279,San Cristobal,7.7669,-72.225,78.12,66,52,4.76,VE,broken clouds
280,Chipinge,-20.1883,32.6236,46.09,89,53,3.09,ZW,broken clouds
281,Rio Tercero,-32.173,-64.1141,62.8,42,0,8.12,AR,clear sky
282,Eyl,7.9803,49.8164,78.96,83,85,18.59,SO,overcast clouds
283,Swellendam,-34.0226,20.4417,58.12,27,0,4.18,ZA,clear sky
284,Mafinga,-7.25,35.0667,69.28,59,100,6.71,TZ,overcast clouds
285,Chicama,-7.8447,-79.1469,72.05,69,40,8.52,PE,scattered clouds
286,Kavieng,-2.5744,150.7967,81.86,76,98,5.97,PG,light rain
287,Blenheim,-41.516,173.9528,58.01,94,100,3.96,NZ,overcast clouds
288,El Dorado,38.7666,-120.5177,90.18,28,100,3.0,US,overcast clouds
289,Tefe,-3.3542,-64.7114,79.41,90,100,2.44,BR,overcast clouds
290,Firovo,57.4814,33.7021,54.27,77,0,3.76,RU,clear sky
291,Maningrida,-12.0667,134.2667,61.72,90,23,8.81,AU,few clouds
292,Tezu,27.9167,96.1667,71.94,96,99,2.08,IN,overcast clouds
293,Hohhot,40.8106,111.6522,62.69,24,97,3.22,CN,overcast clouds
294,Srivardhan,18.0333,73.0167,82.17,78,83,2.17,IN,broken clouds
295,Ambilobe,-13.2,49.05,71.4,90,60,2.51,MG,light rain
296,Ligayan,4.6533,119.4706,84.29,68,100,6.42,PH,overcast clouds
297,Youkounkoun,12.5333,-13.1333,92.3,38,64,9.17,GN,broken clouds
298,Cozumel,20.5083,-86.9458,89.11,71,100,5.99,MX,overcast clouds
299,Vysotskoye,45.025,42.9064,56.57,90,67,5.21,RU,broken clouds
300,Nelson Bay,-32.7167,152.15,48.0,83,2,1.99,AU,clear sky
301,Ous,60.9058,61.5186,65.7,46,85,11.77,RU,overcast clouds
302,Kirakira,-10.4544,161.9205,80.62,80,94,4.5,SB,overcast clouds
303,Nirmal,19.1,78.35,78.01,79,95,6.49,IN,overcast clouds
304,Lumeje,-11.55,20.7833,59.88,47,100,6.26,AO,overcast clouds
305,Tuatapere,-46.1333,167.6833,41.47,88,15,3.76,NZ,few clouds
306,Urengoy,65.9667,78.3667,32.92,91,10,9.46,RU,clear sky
307,Naruja,41.9069,41.9542,59.32,94,29,2.15,GE,scattered clouds
308,Liverpool,53.4106,-2.9779,63.14,84,100,2.01,GB,overcast clouds
309,Srednekolymsk,67.45,153.6833,63.23,35,1,20.83,RU,clear sky
310,Mayo,38.8876,-76.5119,93.99,57,10,4.0,US,clear sky
311,Kismayo,-0.3582,42.5454,78.4,81,75,14.72,SO,broken clouds
312,Sur,22.5667,59.5289,87.82,61,0,9.46,OM,clear sky
313,Sinegorye,62.0788,150.477,49.55,58,70,10.16,RU,broken clouds
314,Lata,40.1629,-8.3327,67.05,85,1,2.73,PT,clear sky
315,Changping,40.2186,116.2197,72.52,46,0,8.99,CN,clear sky
316,Shellbrook,53.2168,-106.4011,74.34,42,90,7.58,CA,overcast clouds
317,Damghan,36.1683,54.348,81.3,34,0,1.07,IR,clear sky
318,Fare,-16.7,-151.0167,80.46,75,43,8.19,PF,scattered clouds
319,Marsh Harbour,26.5412,-77.0636,80.1,77,52,14.7,BS,broken clouds
320,Taltal,-25.4,-70.4833,62.82,77,44,5.41,CL,scattered clouds
321,Henties Bay,-22.116,14.2845,72.63,32,0,9.33,NA,clear sky
322,Eregli,37.5133,34.0467,53.24,42,35,2.66,TR,scattered clouds
323,Yuzhnyy,53.2542,83.6936,50.38,62,0,6.53,RU,clear sky
324,College,64.8569,-147.8028,71.01,39,37,1.99,US,scattered clouds
325,Elk Grove,38.4088,-121.3716,96.58,35,1,1.01,US,clear sky
326,Vanderbijlpark,-26.7117,27.838,46.36,39,0,7.78,ZA,clear sky
327,Namatanai,-3.6667,152.4333,80.46,82,42,5.64,PG,scattered clouds
328,Rio Pomba,-21.2747,-43.1792,65.07,84,69,1.01,BR,broken clouds
329,Touros,-5.1989,-35.4608,78.87,74,12,14.99,BR,few clouds
330,Mattru,7.6244,-11.8332,75.6,94,85,1.74,SL,light rain
331,Lang Son,21.8333,106.7333,74.01,87,50,1.88,VN,scattered clouds
332,Yining,29.0361,114.5636,62.64,85,2,1.5,CN,clear sky
333,Kawalu,-7.3817,108.2082,72.41,93,56,1.59,ID,broken clouds
334,Raga,8.4596,25.678,72.07,83,77,3.15,SS,light rain
335,Matara,5.9485,80.5353,77.41,90,24,9.55,LK,few clouds
336,Yulara,-25.2406,130.9889,45.48,70,0,7.38,AU,clear sky
337,Carballo,43.213,-8.691,61.02,90,1,6.13,ES,clear sky
338,Lynchburg,37.4138,-79.1423,92.32,45,0,5.55,US,clear sky
339,Arlit,18.7369,7.3853,94.84,13,83,3.49,NE,broken clouds
340,Lazaro Cardenas,17.9583,-102.2,88.83,55,44,9.71,MX,scattered clouds
341,Cordoba,-31.4135,-64.1811,67.75,30,20,1.99,AR,few clouds
342,Hofn,64.2539,-15.2082,48.67,82,99,7.2,IS,overcast clouds
343,Marawi,7.9986,124.2928,68.65,92,96,3.96,PH,overcast clouds
344,Eureka,40.8021,-124.1637,70.66,71,38,11.01,US,scattered clouds
345,Hvide Sande,56.0045,8.1294,65.68,88,100,8.48,DK,overcast clouds
346,Shemysheyka,52.892,45.3928,60.62,93,100,9.26,RU,overcast clouds
347,Baudh,20.8416,84.3213,85.51,51,11,2.93,IN,few clouds
348,Makambako,-8.8453,34.823,53.78,90,52,10.58,TZ,broken clouds
349,Kloulklubed,7.0419,134.2556,81.28,78,100,3.24,PW,overcast clouds
350,Mahebourg,-20.4081,57.7,70.25,78,6,5.41,MU,clear sky
351,Ayni,39.3941,68.5377,72.19,40,49,2.73,TJ,scattered clouds
352,Nuevo Progreso,23.1667,-97.95,95.59,62,34,5.99,MX,scattered clouds
353,Mandalgovi,45.7625,106.2708,63.7,45,100,5.3,MN,overcast clouds
354,Encruzilhada Do Sul,-30.5439,-52.5219,66.22,80,100,4.27,BR,overcast clouds
355,Puerto Gaitan,4.3133,-72.0816,86.36,60,42,0.89,CO,scattered clouds
356,Afonso Claudio,-20.0742,-41.1239,61.66,91,69,3.06,BR,broken clouds
357,Havre-Saint-Pierre,50.2334,-63.5986,57.56,88,90,6.91,CA,overcast clouds
358,Rudsar,37.1376,50.288,68.94,87,6,3.36,IR,clear sky
359,Myitkyina,25.3833,97.4,73.92,98,99,1.14,MM,overcast clouds
360,Saskylakh,71.9167,114.0833,36.34,85,100,1.77,RU,light rain
361,Fortuna,40.5982,-124.1573,70.41,65,90,4.0,US,overcast clouds
362,Port-De-Bouc,43.4,4.9833,73.96,53,0,18.84,FR,clear sky
363,Yatou,37.15,122.3833,62.83,75,1,5.64,CN,light rain
364,Liberal,37.0431,-100.921,86.27,44,1,19.57,US,clear sky
365,Anchorage,61.2181,-149.9003,70.57,53,77,4.0,US,broken clouds
366,Valle Hermoso,25.6667,-97.8333,88.83,47,19,10.38,MX,few clouds
367,Tonantins,-2.8731,-67.8022,81.54,87,55,2.44,BR,light rain
368,Tenosique,17.4833,-91.4333,97.75,36,99,7.29,MX,overcast clouds
369,Abalak,58.1286,68.5944,58.35,59,9,10.02,RU,clear sky
370,Lorengau,-2.0226,147.2712,78.69,87,100,11.01,PG,overcast clouds
371,Seoul,37.5683,126.9778,63.91,84,87,4.88,KR,overcast clouds
372,Mezen,65.8522,44.24,45.72,76,100,9.08,RU,light rain
373,San Patricio,28.017,-97.5169,89.02,61,64,10.54,US,broken clouds
374,Kostomuksha,64.571,30.5767,63.73,51,99,6.46,RU,overcast clouds
375,Gravdal,68.1214,13.5031,50.88,79,23,11.3,NO,few clouds
376,Dalbandin,28.8947,64.4101,85.03,51,0,7.02,PK,clear sky
377,Tabory,58.5198,64.5495,57.76,59,65,8.57,RU,broken clouds
378,Canberra,-35.2835,149.1281,36.05,91,0,5.01,AU,clear sky
379,Inhambane,-23.865,35.3833,66.31,73,71,8.86,MZ,broken clouds
380,Port-Cartier,50.0334,-66.8654,59.22,84,85,8.37,CA,overcast clouds
381,Notre-Dame-Du-Lac,47.6136,-68.7964,75.25,94,100,9.28,CA,overcast clouds
382,Helden,51.115,7.9519,62.44,40,99,5.06,DE,overcast clouds
383,Bar Harbor,44.3876,-68.2039,79.29,66,1,10.31,US,clear sky
384,Gillette,44.2911,-105.5022,93.24,17,1,1.99,US,clear sky
385,Buala,-8.145,159.5921,81.46,81,51,5.88,SB,broken clouds
386,Okha,53.5739,142.9478,35.22,96,100,18.12,RU,overcast clouds
387,Luanda,-8.8368,13.2343,77.0,88,40,10.36,AO,scattered clouds
388,Yumen,40.2833,97.2,68.86,42,100,12.15,CN,overcast clouds
389,Muisne,0.6,-80.0333,78.3,84,95,11.27,EC,overcast clouds
390,Acajutla,13.5928,-89.8275,90.81,68,43,6.22,SV,scattered clouds
391,Kizukuri,40.8061,140.3861,60.46,71,99,8.01,JP,overcast clouds
392,Amahai,-3.3333,128.9167,77.54,88,90,6.17,ID,overcast clouds
393,General Roca,-39.0333,-67.5833,53.74,33,21,8.21,AR,few clouds
394,Bontang,0.1333,117.5,77.7,89,78,5.55,ID,broken clouds
395,Great Yarmouth,52.6083,1.7305,57.94,78,27,2.06,GB,scattered clouds
396,Tuyen Quang,21.8233,105.2181,76.57,88,87,1.23,VN,overcast clouds
397,Berlevag,70.8578,29.0864,41.47,73,85,15.46,NO,overcast clouds
398,Vila Franca Do Campo,37.7167,-25.4333,66.61,81,62,2.48,PT,broken clouds
399,Griffith,41.5284,-87.4237,92.05,39,1,4.0,US,clear sky
400,Kemijarvi,66.7131,27.4306,54.05,89,66,4.92,FI,broken clouds
401,Alizai,33.5383,70.3462,81.03,42,0,3.36,PK,clear sky
402,Bulaevo,54.9056,70.4439,50.9,65,6,7.34,KZ,clear sky
403,Atambua,-9.1061,124.8925,72.18,88,86,4.81,ID,overcast clouds
404,Dawei,14.0833,98.2,77.54,92,100,0.81,MM,overcast clouds
405,Kamaishi,39.2667,141.8833,64.72,75,100,5.7,JP,overcast clouds
406,Boende,-0.2167,20.8667,73.47,88,96,3.44,CD,overcast clouds
407,Quatre Cocos,-20.2078,57.7625,70.09,78,10,4.92,MU,clear sky
408,Loreto,22.2667,-101.9667,78.93,20,81,7.31,MX,broken clouds
409,Nome,64.5011,-165.4064,35.67,93,90,16.11,US,light snow
410,Nizwa,22.9333,57.5333,89.83,33,11,0.58,OM,few clouds
411,Kutum,14.2,24.6667,82.58,17,13,10.85,SD,few clouds
412,Nuuk,64.1835,-51.7216,43.41,81,75,25.32,GL,light intensity drizzle
413,Zhangye,38.9342,100.4517,67.08,47,86,18.21,CN,overcast clouds
414,Pangnirtung,66.1451,-65.7125,35.04,93,93,1.68,CA,overcast clouds
415,Souris,49.6172,-100.2612,96.75,34,39,14.92,CA,light rain
416,Matamoros,25.5333,-103.25,91.11,23,1,4.41,MX,clear sky
417,Shache,38.4167,77.2406,77.29,16,8,5.93,CN,clear sky
418,Okhotsk,59.3833,143.3,42.91,81,76,3.74,RU,broken clouds
419,Eucaliptus,-17.5833,-67.5167,56.5,24,50,13.04,BO,scattered clouds
420,Miri,4.4148,114.0089,77.32,91,100,4.29,MY,light rain
421,Jasper,37.2001,-94.3502,83.01,54,20,7.65,US,few clouds
422,Dunedin,-45.8742,170.5036,49.8,66,100,1.36,NZ,light rain
423,Saint Anthony,45.0205,-93.218,100.33,27,1,1.99,US,clear sky
424,Vestmanna,62.1564,-7.1664,49.12,100,90,9.91,FO,overcast clouds
425,Fort Frances,48.5999,-93.4003,92.16,34,1,4.0,CA,clear sky
426,Skegness,53.1436,0.3363,60.1,81,39,7.47,GB,scattered clouds
427,Santa Isabel,-23.3156,-46.2214,67.3,66,0,2.75,BR,clear sky
428,Biloela,-24.4167,150.5,46.71,65,0,7.31,AU,clear sky
429,Nuevitas,21.5453,-77.2644,83.44,72,74,14.5,CU,broken clouds
430,Esso,55.9333,158.7,42.73,99,100,5.46,RU,light rain
431,Lavrentiya,65.5833,-171.0,35.26,75,94,13.44,RU,overcast clouds
432,Ngunguru,-35.6167,174.5,60.17,85,100,20.13,NZ,moderate rain
433,Midland,31.9974,-102.0779,90.48,34,1,9.22,US,clear sky
434,Kudahuvadhoo,2.6708,72.8944,82.98,75,100,14.85,MV,overcast clouds
435,Summerland,49.5998,-119.6691,69.24,31,85,13.89,CA,overcast clouds
436,Soyo,-6.1349,12.3689,77.4,87,99,9.17,AO,overcast clouds
437,Ancud,-41.8697,-73.8203,49.42,71,62,2.3,CL,broken clouds
438,Tiruchchendur,8.4833,78.1167,81.43,71,100,9.66,IN,overcast clouds
439,Jalingo,8.8833,11.3667,77.25,83,84,4.94,NG,light rain
440,Toppenish,46.3774,-120.3087,72.86,32,41,23.09,US,scattered clouds
441,Waipawa,-41.4122,175.5153,57.04,80,100,5.26,NZ,heavy intensity rain
442,Diamantino,-14.4086,-56.4461,82.4,45,100,4.36,BR,overcast clouds
443,Vanimo,-2.6741,141.3028,75.74,87,73,3.38,PG,broken clouds
444,Auki,-8.7676,160.7034,79.61,83,18,3.67,SB,few clouds
445,Vao,-22.6667,167.4833,71.51,64,98,23.49,NC,overcast clouds
446,Erenhot,43.6475,111.9767,63.84,28,80,10.83,CN,broken clouds
447,Mayumba,-3.432,10.6554,77.14,87,73,4.16,GA,broken clouds
448,Hun,29.1268,15.9477,78.53,22,39,11.18,LY,scattered clouds
449,Srandakan,-7.9386,110.2506,56.73,91,10,2.55,ID,clear sky
450,Veraval,20.9,70.3667,84.52,69,2,9.33,IN,clear sky
451,Edson,53.5835,-116.4356,50.7,79,100,4.45,CA,overcast clouds
452,Boca Do Acre,-8.7522,-67.3978,87.51,57,65,1.03,BR,broken clouds
453,Dondo,-19.6094,34.7431,65.71,75,6,6.82,MZ,clear sky
454,Kirkwood,38.5834,-90.4068,90.52,45,29,1.01,US,scattered clouds
455,Limon,10.0,-83.0333,84.34,66,92,6.4,CR,overcast clouds
456,Salinopolis,-0.6136,-47.3561,80.8,78,17,10.49,BR,few clouds
457,Hisar,29.1667,75.7167,92.21,34,28,12.71,IN,scattered clouds
458,Ilulissat,69.2167,-51.1,46.42,61,20,6.91,GL,few clouds
459,Baijiantan,45.6333,85.1833,63.21,33,30,20.42,CN,scattered clouds
460,Mackay,-21.15,149.2,51.67,64,92,11.95,AU,overcast clouds
461,Komsomolskiy,40.4272,71.7189,81.82,29,89,0.89,UZ,overcast clouds
462,Leningradskiy,69.3833,178.4167,35.71,95,99,12.08,RU,overcast clouds
463,Negru Voda,43.8167,28.2,59.02,68,38,7.61,RO,scattered clouds
464,Plettenberg Bay,-34.0527,23.3716,60.24,30,0,6.29,ZA,clear sky
465,Vaitape,-16.5167,-151.75,80.55,74,74,7.67,PF,broken clouds
466,Amazar,53.858,120.875,54.3,63,4,1.74,RU,clear sky
467,Coahuayana,18.7333,-103.6833,92.68,51,100,6.91,MX,overcast clouds
468,Monteagudo,-19.8167,-63.9833,75.09,55,33,5.75,BO,scattered clouds
469,Murray Bridge,-35.1167,139.2667,60.12,91,85,5.93,AU,overcast clouds
470,Kushima,31.4583,131.2333,63.97,93,100,3.2,JP,overcast clouds
471,Tocopilla,-22.092,-70.1979,66.96,64,15,5.44,CL,few clouds
472,Saint-Augustin,51.226,-58.6502,48.54,88,100,12.3,CA,overcast clouds
473,Mangan,27.5167,88.5333,73.74,92,100,0.96,IN,overcast clouds
474,Santa Rosa,14.3122,121.1114,81.09,84,99,5.3,PH,overcast clouds
475,Dillon,34.4166,-79.3712,90.48,67,95,8.61,US,overcast clouds
476,Vannes,47.8333,-2.5,60.26,87,6,5.44,FR,clear sky
477,Harper,4.375,-7.7169,78.49,88,93,9.66,LR,light rain
478,Hua Hin,12.5707,99.9588,81.81,76,100,7.27,TH,light rain
479,San Pedro,14.35,121.0167,80.31,84,100,5.91,PH,overcast clouds
480,Normandin,48.8333,-72.5321,71.91,74,89,9.89,CA,overcast clouds
481,Ahipara,-35.1667,173.1667,58.35,90,100,16.78,NZ,heavy intensity rain
482,Crotone,39.0851,17.1178,69.6,62,21,4.47,IT,few clouds
483,Tutoia,-2.7619,-42.2744,79.3,78,5,5.66,BR,clear sky
484,Lagoa Formosa,-18.7786,-46.4075,70.02,54,50,4.74,BR,scattered clouds
485,Maketu,-37.7667,176.45,61.48,96,100,14.88,NZ,light rain
486,Vieques,18.425,-65.8329,84.24,78,96,16.6,PR,light rain
487,Borogontsy,62.6683,131.1683,58.35,69,100,7.63,RU,overcast clouds
488,Bacolod,10.6667,122.95,77.79,87,97,6.67,PH,light rain
489,Liwale,-9.7667,37.9333,70.21,64,81,7.63,TZ,broken clouds
490,Tete,-16.1564,33.5867,68.09,56,40,9.22,MZ,scattered clouds
491,Wolfen,51.6667,12.2833,67.57,96,100,2.71,DE,light rain
492,Gimli,50.6336,-96.9907,76.26,48,82,10.22,CA,broken clouds
493,Almaznyy,48.0448,40.045,59.14,92,100,9.15,RU,overcast clouds
494,Arraial Do Cabo,-22.9661,-42.0278,74.39,84,0,23.38,BR,clear sky
495,Spremberg,51.5697,14.3736,67.42,71,40,6.69,DE,scattered clouds
496,Port Hardy,50.6996,-127.4199,54.01,65,90,7.81,CA,light rain
497,Mantua,45.1667,10.7833,71.74,76,10,7.58,IT,clear sky
498,Yar-Sale,66.8333,70.8333,38.08,73,35,3.74,RU,scattered clouds
499,Bordighera,43.7806,7.6645,68.25,84,16,5.35,IT,few clouds
500,Bundaberg,-24.85,152.35,54.21,70,0,5.01,AU,clear sky
501,Carupano,10.6678,-63.2585,74.3,94,100,12.33,VE,overcast clouds
502,Betioky,-23.7167,44.3833,61.72,82,6,9.22,MG,clear sky
503,Jatai,-17.8814,-51.7144,75.88,34,17,4.47,BR,few clouds
504,Praia Da Vitoria,38.7333,-27.0667,67.75,88,40,4.05,PT,scattered clouds
505,Phan Thiet,10.9333,108.1,79.38,85,100,8.03,VN,overcast clouds
506,Voyvozh,62.892,54.9635,59.86,56,13,6.69,RU,few clouds
507,Safita,34.8205,36.1153,66.18,74,0,1.34,SY,clear sky
508,Olga,43.7444,135.2892,54.27,85,98,2.21,RU,overcast clouds
509,Cartagena Del Chaira,1.3349,-74.8429,84.25,67,61,0.51,CO,broken clouds
510,Daru,-9.0763,143.2092,76.57,91,100,11.86,PG,heavy intensity rain
511,Port-Gentil,-0.7193,8.7815,78.49,88,100,11.65,GA,moderate rain
512,Inirida,3.8653,-67.9239,83.44,76,32,1.66,CO,light rain
513,Hervey Bay,-25.2986,152.8535,54.03,71,0,10.96,AU,clear sky
514,Lugovoy,42.9472,72.7644,66.36,58,92,5.55,KZ,overcast clouds
515,Carauari,-4.8828,-66.8958,80.87,88,99,1.05,BR,heavy intensity rain
516,Ugoofaaru,5.6667,73.0,82.53,77,100,14.72,MV,overcast clouds
517,Banda Aceh,5.5577,95.3222,79.29,81,100,12.03,ID,overcast clouds
518,Aasiaat,68.7098,-52.8699,38.35,82,14,8.41,GL,few clouds
519,Codrington,-38.2667,141.9667,53.26,95,100,8.43,AU,overcast clouds
520,Kendari,-3.945,122.4989,73.81,94,77,3.27,ID,broken clouds
521,Andradas,-22.0681,-46.5692,64.94,64,1,6.11,BR,clear sky
522,Fort Nelson,58.8053,-122.7002,67.05,33,97,8.21,CA,overcast clouds
523,Kurchum,48.5722,83.6542,44.69,79,0,10.8,KZ,clear sky
524,Alofi,-19.0595,-169.9187,74.8,67,96,14.97,NU,overcast clouds
525,Elizabeth City,36.2946,-76.2511,89.98,70,1,6.91,US,clear sky
526,Sheksna,59.21,38.5107,56.34,68,7,2.82,RU,clear sky
527,Luderitz,-26.6481,15.1594,67.95,33,0,7.43,NA,clear sky
528,Painesville,41.7245,-81.2457,86.68,59,10,11.54,US,clear sky
529,Smithers,54.7804,-127.1743,57.76,39,77,7.09,CA,broken clouds
530,Kipini,-2.5257,40.5262,78.64,82,62,19.04,KE,broken clouds
531,Sulangan,11.1373,123.7228,81.86,76,100,7.52,PH,overcast clouds
532,Vodnyy,63.5046,53.4095,63.75,49,42,6.53,RU,scattered clouds
533,Cockburn Town,21.4612,-71.1419,84.16,65,40,20.71,TC,scattered clouds
534,Grindavik,63.8424,-22.4338,50.56,81,75,23.49,IS,light rain
535,Iracoubo,5.4802,-53.2011,79.29,83,21,10.38,GF,few clouds
536,Amarpur,25.0333,86.9,92.7,39,70,4.12,IN,broken clouds
537,Mudgee,-32.5943,149.5871,30.61,72,2,3.62,AU,clear sky
538,Koster,-25.863,26.8976,41.54,29,0,6.49,ZA,clear sky
539,Camara De Lobos,32.6333,-16.9667,67.01,84,40,3.0,PT,scattered clouds
540,Umm Lajj,25.0213,37.2685,83.66,47,25,10.47,SA,scattered clouds
541,Yarmouth,41.7057,-70.2286,87.78,57,1,8.01,US,clear sky
542,Fereydunshahr,32.941,50.121,62.15,27,0,4.54,IR,clear sky
543,Igarka,67.4667,86.5833,27.91,95,50,11.52,RU,scattered clouds
544,Liwonde,-15.0506,35.2035,59.76,73,77,3.71,MW,broken clouds
545,Emerald,-23.5333,148.1667,49.33,66,22,11.43,AU,few clouds
546,Honiara,-9.4333,159.95,79.5,84,66,3.91,SB,broken clouds
547,Darnah,32.767,22.6367,69.69,71,0,16.13,LY,clear sky
548,Grenada,37.1882,-3.6067,62.19,87,40,5.01,ES,scattered clouds
549,Phalaborwa,-23.943,31.1411,53.89,62,0,3.91,ZA,clear sky
550,Kondopoga,62.2057,34.2614,58.19,72,70,2.57,RU,broken clouds
551,Huarmey,-10.0681,-78.1522,69.94,72,15,10.74,PE,few clouds
552,Vostok,46.4856,135.8833,48.34,96,100,1.57,RU,overcast clouds
553,Champerico,14.3,-91.9167,93.74,66,77,9.8,GT,broken clouds
554,Naze,28.3667,129.4833,71.17,96,100,6.78,JP,light rain
555,Mabaruma,8.2,-59.7833,76.51,96,100,5.99,GY,overcast clouds
556,Beidao,34.5686,105.8933,63.34,74,86,3.89,CN,overcast clouds
557,Nancha,47.1333,129.2667,52.21,98,100,0.56,CN,overcast clouds
558,Manoel Urbano,-8.8389,-69.2597,88.81,52,40,1.5,BR,scattered clouds
559,Kushiro,42.975,144.3747,56.16,78,68,11.83,JP,broken clouds
560,Makariv,50.4641,29.8113,61.29,81,40,6.17,UA,scattered clouds
561,Atarra,25.2833,80.5667,90.16,46,100,11.36,IN,overcast clouds
562,Tabou,4.423,-7.3528,78.85,87,100,9.84,CI,light rain
563,Lalibela,12.0333,39.0333,62.91,39,54,7.58,ET,broken clouds
564,Palmer,42.1584,-72.3287,91.62,46,97,1.01,US,overcast clouds
565,Byron Bay,-28.65,153.6167,50.88,86,11,6.93,AU,few clouds
566,Hamilton,39.1834,-84.5333,88.14,46,5,1.99,US,clear sky
567,Hargeysa,9.56,44.065,74.86,51,31,16.37,SO,scattered clouds
568,Suluq,31.6682,20.2521,73.15,40,1,12.53,LY,clear sky
569,Ocampo,21.65,-101.5,76.28,23,61,8.25,MX,broken clouds
570,San Carlos,9.6612,-68.5827,75.58,96,100,1.68,VE,overcast clouds
571,Togur,58.3631,82.8265,52.81,66,97,7.43,RU,overcast clouds
572,El Alto,-4.2714,-81.2147,69.26,76,100,16.87,PE,overcast clouds
573,Shangzhi,45.2167,127.9667,50.23,97,96,4.54,CN,overcast clouds
574,Port Blair,11.6667,92.75,83.79,78,100,9.62,IN,light rain
575,Kitgum,3.2783,32.8867,66.92,92,98,3.38,UG,overcast clouds
576,Beloha,-25.1667,45.05,59.83,79,1,6.2,MG,clear sky
577,Dashitou,43.3067,128.5114,48.49,95,69,5.03,CN,broken clouds
578,Coihaique,-45.5752,-72.0662,38.01,94,81,7.07,CL,broken clouds
579,Astorga,-23.2325,-51.6656,70.38,49,11,2.77,BR,few clouds
580,Weymouth,42.2209,-70.9398,91.11,49,75,5.99,US,broken clouds
581,Rosendal,59.9867,6.0135,63.52,78,99,4.52,NO,light rain
582,Palasa,18.7667,84.4167,83.41,81,8,9.78,IN,clear sky
583,Qaracala,39.8132,48.9523,71.06,57,7,5.59,AZ,clear sky
584,Husavik,66.0449,-17.3389,47.75,91,90,6.89,IS,overcast clouds
585,Yamada,39.4667,141.95,64.45,76,100,5.91,JP,overcast clouds
586,Goderich,43.7501,-81.7165,84.2,77,100,14.99,CA,overcast clouds
587,Medeiros Neto,-17.3739,-40.2206,71.19,87,38,9.01,BR,scattered clouds
588,Abilene,32.4487,-99.7331,88.29,52,40,3.0,US,scattered clouds
589,Atasu,48.6814,71.6433,51.91,45,70,12.93,KZ,broken clouds
590,Beipiao,41.7919,120.7792,59.29,57,25,5.57,CN,scattered clouds
591,Angoram,-4.0625,144.0661,73.09,99,89,1.45,PG,overcast clouds
592,Maceio,-9.6658,-35.7353,74.64,94,75,11.81,BR,broken clouds
593,Dvinskoy,62.1535,45.1175,59.97,55,6,2.24,RU,clear sky
594,Labuan,5.2767,115.2417,78.96,72,99,3.38,MY,overcast clouds
595,Severodvinsk,64.5635,39.8302,55.51,73,49,8.9,RU,scattered clouds
596,Ende,-8.8432,121.6623,75.38,89,81,4.23,ID,broken clouds
597,Tevaitoa,-16.7833,-151.5,80.56,74,67,8.55,PF,broken clouds
598,Pontianak,-0.0333,109.3333,76.98,100,75,2.77,ID,broken clouds
599,Bosaso,11.2842,49.1816,88.97,55,86,4.43,SO,overcast clouds
600,Omboue,-1.5746,9.2618,77.29,89,100,4.9,GA,light rain
601,Tchollire,8.4022,14.1698,74.91,74,99,2.93,CM,overcast clouds
602,Geraldton,-28.7667,114.6,46.81,87,0,7.29,AU,clear sky
603,Soe,-9.8607,124.284,65.93,93,96,4.52,ID,light rain
604,Svetlaya,46.5389,138.3297,49.55,91,87,9.28,RU,overcast clouds
605,Amberg,49.4414,11.8622,63.52,97,100,9.22,DE,moderate rain
606,Natal,-5.795,-35.2094,78.1,73,6,11.21,BR,clear sky
607,Pangody,65.85,74.4859,35.67,81,33,8.75,RU,scattered clouds
608,Sovetskiy,61.3614,63.5842,61.65,53,67,7.16,RU,broken clouds
609,Bintulu,3.1667,113.0333,76.15,93,95,1.36,MY,overcast clouds
610,Coquimbo,-29.9533,-71.3436,60.06,83,45,5.77,CL,scattered clouds
611,Katherine,-14.4667,132.2667,55.72,76,9,6.06,AU,clear sky
612,Minot,48.2325,-101.2963,98.82,16,1,12.66,US,clear sky
613,Ullapool,57.8987,-5.1604,56.35,94,87,2.64,GB,heavy intensity rain
614,Avila,40.5833,-5.0,62.1,60,87,4.05,ES,overcast clouds
615,Suba,10.8438,121.0102,80.92,79,100,2.24,PH,overcast clouds
616,Najran,17.4924,44.1277,80.87,13,44,6.15,SA,scattered clouds
617,Joao Pinheiro,-17.7425,-46.1725,70.41,56,7,2.21,BR,clear sky
618,Guspini,39.5406,8.6294,71.71,76,63,0.69,IT,light rain
619,Pandharpur,17.6667,75.3333,75.15,86,100,7.36,IN,overcast clouds
620,Mindelo,16.8901,-24.9804,72.95,78,40,24.85,CV,scattered clouds
621,Nha Trang,12.25,109.1833,78.8,80,100,5.39,VN,overcast clouds
622,Plouzane,48.3833,-4.6167,59.32,82,90,7.07,FR,overcast clouds
623,Tahoua,14.8888,5.2692,89.06,32,84,7.78,NE,broken clouds
624,Odesskoye,54.2111,72.9651,53.22,65,14,7.25,RU,few clouds
625,Abu Dhabi,24.4667,54.3667,88.52,72,0,8.72,AE,clear sky
626,Lac-Megantic,45.5834,-70.8823,78.82,97,96,13.67,CA,overcast clouds
627,Quelimane,-17.8786,36.8883,64.65,88,93,5.35,MZ,light rain
628,Dayong,25.0209,118.2898,73.17,98,98,1.66,CN,overcast clouds
629,Murom,55.5656,42.0417,53.89,96,10,6.53,RU,clear sky
630,Yinchuan,38.4681,106.2731,74.75,16,83,11.5,CN,broken clouds
631,Sao Felix Do Xingu,-6.6447,-51.995,80.24,67,52,2.95,BR,broken clouds
632,Takoradi,4.8845,-1.7554,80.06,80,77,8.41,GH,broken clouds
633,Colorines,19.2,-100.1667,73.8,61,77,3.24,MX,broken clouds
634,Cabedelo,-6.9811,-34.8339,77.67,81,38,10.22,BR,scattered clouds
635,Nador,35.174,-2.9287,66.45,88,0,2.04,MA,clear sky
636,Cap Malheureux,-19.9842,57.6142,70.47,85,13,1.01,MU,few clouds
637,Maneadero,31.7167,-116.5667,76.19,54,19,9.19,MX,few clouds
638,Nabire,-3.3667,135.4833,75.18,92,100,3.53,ID,overcast clouds
639,Longyearbyen,78.2186,15.6401,33.64,80,75,14.97,SJ,broken clouds
640,Meulaboh,4.1363,96.1285,74.73,90,93,4.92,ID,overcast clouds
641,Yaan,7.3833,8.5667,74.98,87,83,6.26,NG,broken clouds
642,Santa Isabel Do Rio Negro,-0.4139,-65.0192,84.54,72,29,3.69,BR,scattered clouds
643,Manono,-7.3,27.4167,79.14,46,49,10.96,CD,scattered clouds
644,Ust-Ishim,57.6935,71.1665,59.07,59,77,9.31,RU,broken clouds
645,Deputatskiy,69.3,139.9,35.94,91,100,8.12,RU,moderate rain
646,Toowoomba,-27.55,151.9667,41.25,87,0,4.34,AU,clear sky
647,Dali,25.7,100.1833,61.66,92,94,3.78,CN,overcast clouds
648,Sulina,45.1559,29.6536,63.66,62,75,6.85,RO,broken clouds
649,Ibirapitanga,-14.1642,-39.3736,70.84,87,62,2.21,BR,broken clouds
650,Derzhavinsk,51.1,66.3167,54.7,40,83,7.87,KZ,broken clouds
651,Pandan,14.0453,124.1694,79.92,84,16,5.28,PH,few clouds
652,Barguzin,53.6167,109.6167,62.8,47,68,5.61,RU,light rain
653,Guozhen,34.3659,107.359,72.25,42,69,2.91,CN,broken clouds
654,Darhan,49.4867,105.9228,64.24,56,100,7.07,MN,overcast clouds
655,North Branch,45.5113,-92.9802,100.47,38,35,12.39,US,scattered clouds
656,Cascais,38.6979,-9.4215,64.62,67,20,25.01,PT,few clouds
657,Antalaha,-14.9003,50.2788,72.73,88,92,1.99,MG,overcast clouds
658,Council Bluffs,41.2619,-95.8608,94.05,35,40,17.27,US,scattered clouds
659,Mount Isa,-20.7333,139.5,56.97,51,97,8.05,AU,overcast clouds
660,Lonar,19.9833,76.5333,73.51,79,100,1.36,IN,overcast clouds
661,Rodos,36.4408,28.2225,76.62,49,0,8.99,GR,clear sky
662,Uray,60.1247,64.7758,61.86,57,18,10.78,RU,few clouds
663,Bangassou,4.7413,22.8184,69.57,95,96,2.17,CF,overcast clouds
664,Otuzco,-7.9,-78.5833,58.17,68,52,5.55,PE,light rain
665,Qianan,44.9932,124.0581,52.27,89,17,4.5,CN,few clouds
666,Peleduy,59.6289,112.7406,48.94,92,100,9.01,RU,light rain
667,York,40.1254,-77.0,91.99,38,25,9.91,US,scattered clouds
668,Presidencia Roque Saenz Pena,-26.7852,-60.4388,75.88,54,100,5.28,AR,overcast clouds
669,Nanakuli,21.3906,-158.1547,84.15,54,75,15.41,US,broken clouds
670,Labrea,-7.2586,-64.7981,88.05,58,92,1.19,BR,light rain
671,Blagoyevo,63.3667,47.9167,61.03,56,46,5.59,RU,scattered clouds
672,Grand-Santi,4.25,-54.3833,77.9,85,41,4.43,GF,moderate rain
673,Arrifes,37.7667,-25.7,64.65,77,20,10.36,PT,few clouds
674,Choix,26.7092,-108.3219,103.87,14,0,12.39,MX,clear sky
675,Sungaipenuh,-2.0833,101.3833,63.45,97,38,1.25,ID,scattered clouds
676,Mumford,5.2618,-0.759,80.47,81,73,8.88,GH,broken clouds
677,Lewiston,44.1003,-70.2148,85.75,54,20,8.05,US,few clouds
678,North Las Vegas,36.1989,-115.1175,110.71,7,1,14.97,US,clear sky
679,Gayny,60.3071,54.3241,58.06,63,53,7.31,RU,broken clouds
680,Shitanjing,39.2342,106.3439,72.27,15,44,9.28,CN,scattered clouds
681,Altamira,-3.2033,-52.2064,79.79,78,59,2.59,BR,broken clouds
682,Corrales,35.2378,-106.6067,95.97,15,1,3.0,US,clear sky
683,Beyla,8.6833,-8.6333,69.96,97,100,1.97,GN,moderate rain
684,Kokopo,-4.352,152.2633,78.33,84,44,8.19,PG,scattered clouds
685,Jining,35.405,116.5814,70.38,44,0,8.16,CN,clear sky
686,Upata,8.0086,-62.3989,78.98,83,36,4.27,VE,scattered clouds
687,Manokwari,-0.8667,134.0833,78.22,78,100,3.36,ID,overcast clouds
688,Ascension,30.2169,-90.9001,78.8,89,90,8.05,US,light intensity drizzle
689,Hare Bay,48.8499,-54.0148,56.19,79,100,10.87,CA,overcast clouds
690,Dallas,32.7668,-96.7836,87.35,56,20,6.08,US,few clouds
